{"status":"success","lastModified":"2026-06-01T01:14:47.820Z","data":{"patterns":[{"length":14914,"id":"1067","encodedPolyline":"qrfsFp|wyNHW@_@s@eBYuBtBmAlAc@dBMjSLlCCjCSfB[~H_CrAOjE@zKl@L}G^@_@A?gCj@{^ZA[@Ty[R?S?XiQTAU@ZmMJaLbUqC?H?G~YeD?T???UxB[K~IcAAw@N_CzAuFx@E[","direction":"ib"},{"length":12017,"id":"1068","encodedPolyline":"sacsFvxsyNBZcEf@gAX_@?y@k@[I]Bc@Vc@~@sL|AC_@BZmGl@UjJOs@Nr@[jPK?L@[f`@UMTLe@n[QnEUAT@UnHoHUwASyCAaBJaB\\_ErAoCj@eDVeMC?K?JcJGaAHy@P}CbBXrBMjBLb@RDRF","direction":"ob"}],"stops":[{"name":"Buckeye Lot Loop","id":"75","service":"clever","latitude":40.015932999999,"longitude":-83.030646000001},{"name":"Midwest Campus (Eastbound)","id":"20","service":"clever","latitude":40.004251,"longitude":-83.026541000001},{"name":"St. John East Bound","id":"21","service":"clever","latitude":40.004047999999,"longitude":-83.020743999998},{"name":"Knowlton Hall","id":"57","service":"clever","latitude":40.003978999999,"longitude":-83.016142000001},{"name":"Fontana Lab","id":"58","service":"clever","latitude":40.003838999999,"longitude":-83.013196999999},{"name":"High And 15th","id":"605","service":"clever","latitude":40.000207,"longitude":-83.008127999999},{"name":"High And Chittenden","id":"608","service":"clever","latitude":39.995889000001,"longitude":-83.007372000001},{"name":"Ohio Union (Northbound)","id":"43","service":"clever","latitude":39.997857999999,"longitude":-83.009564},{"name":"Arps Hall","id":"62","service":"clever","latitude":40.002478000001,"longitude":-83.010531},{"name":"Blackburn House","id":"55","service":"clever","latitude":40.004003999999,"longitude":-83.012460999999},{"name":"Mason Hall","id":"56","service":"clever","latitude":40.004117,"longitude":-83.015499999999},{"name":"St. John Arena (Westbound)","id":"24","service":"clever","latitude":40.004299999999,"longitude":-83.020758000002},{"name":"Midwest Campus (Westbound)","id":"25","service":"clever","latitude":40.004579000001,"longitude":-83.026416999999},{"name":"Fred Taylor & Schottenstein Drive.","id":"426","service":"clever","latitude":40.013072999999,"longitude":-83.028619999999}]}}