{"status":"success","lastModified":"2026-06-01T01:14:49.459Z","data":{"patterns":[{"length":19558,"id":"458","encodedPolyline":"wkcsFttqyN?NyOc@?Q?PaSk@?I?H_Qg@?O?NkRo@?K?J{Uo@Q~M~EPAT@U~Qj@?L?MtPf@?H?IrPd@ETDU`Qh@AR@S`Qf@AR@SlYx@?F?GxCFObII?H?a@nSA?@?GxBsKlAQ`LwDf@C[BZcEf@gAX_@?y@k@[I]Bc@Vc@~@sL|AC_@","direction":"ib"},{"length":8699,"id":"459","encodedPolyline":"o~csFx~syNBZoGl@LaLbUqC?H?Iv`@sELcFR@SA`@gSF@GA^gUqAC?S?Rc\\}@?O","direction":"ob"}],"stops":[{"name":"4th & 15th","id":"114","service":"clever","latitude":39.999477000001,"longitude":-82.998670000001},{"name":"4th & 18th","id":"132","service":"clever","latitude":40.002171,"longitude":-82.998484},{"name":"4th & Lane (North Of Lane)","id":"133","service":"clever","latitude":40.005377999999,"longitude":-82.998297999999},{"name":"4th & Alden Avenue","id":"134","service":"clever","latitude":40.008256000001,"longitude":-82.998065999999},{"name":"4th & Maynard (North Of Maynard)","id":"135","service":"clever","latitude":40.011360999999,"longitude":-82.997848000001},{"name":"Summit & Tompkins","id":"136","service":"clever","latitude":40.013998000001,"longitude":-83.000266},{"name":"Summit & Maynard","id":"120","service":"clever","latitude":40.010950999999,"longitude":-83.000447},{"name":"Summit & Alden","id":"137","service":"clever","latitude":40.008121,"longitude":-83.000634},{"name":"Summit & Lane","id":"138","service":"clever","latitude":40.005325,"longitude":-83.000876},{"name":"Summit & 18th Avenue","id":"139","service":"clever","latitude":40.002422,"longitude":-83.001083999999},{"name":"Summit & 15th (South Side Of 15th)","id":"140","service":"clever","latitude":39.999525999999,"longitude":-83.001278999998},{"name":"Summit & Chittenden (South Side Of Chitt)","id":"148","service":"clever","latitude":39.995293999999,"longitude":-83.001511000001},{"name":"11th & Indianola (Westbound)","id":"128","service":"clever","latitude":39.994654000001,"longitude":-83.003125999999},{"name":"11th & High (Westbound)","id":"129","service":"clever","latitude":39.994782999999,"longitude":-83.006408},{"name":"Ohio Union (Northbound)","id":"43","service":"clever","latitude":39.997857999999,"longitude":-83.009564},{"name":"Arps Hall","id":"62","service":"clever","latitude":40.002478000001,"longitude":-83.010531},{"name":"High And 15th","id":"605","service":"clever","latitude":40.000207,"longitude":-83.008127999999},{"name":"11th & High (Eastbound) ","id":"110","service":"clever","latitude":39.994643,"longitude":-83.005885},{"name":"11th & Indianola (Eastbound)","id":"111","service":"clever","latitude":39.994525999999,"longitude":-83.002647999998},{"name":"4th & Chittenden Avenue","id":"142","service":"clever","latitude":39.994821999999,"longitude":-82.998963000001}]}}